{"type":"FeatureCollection","features":[{"type":"Feature","properties":{"City":"Austin","State":"Tx","Deposits_2010":66990,"Deposits_2011":81510,"Deposits_2012":89584,"Deposits_2013":95012,"Deposits_2014":104654,"Deposits_2015":109957,"Deposits_2016":123337,"name":"Austin, Tx","desc":"Austin, Travis County, TX, US"},"geometry":{"type":"Point","coordinates":[-97.743699,30.271129]}},{"type":"Feature","properties":{"City":"New York City","State":"NY","Deposits_2010":1496325,"Deposits_2011":1918898,"Deposits_2012":2164317,"Deposits_2013":2328422,"Deposits_2014":2540976,"Deposits_2015":2631325,"Deposits_2016":2954039,"name":"New York City, NY","desc":"New York City, New York County, NY, US"},"geometry":{"type":"Point","coordinates":[-73.988898,40.724579]}},{"type":"Feature","properties":{"City":"Los Angeles","State":"CA","Deposits_2010":53896,"Deposits_2011":67250,"Deposits_2012":84655,"Deposits_2013":98405,"Deposits_2014":142470,"Deposits_2015":154818,"Deposits_2016":175682,"name":"Los Angeles, CA","desc":"Los Angeles, Los Angeles County, CA, US"},"geometry":{"type":"Point","coordinates":[-118.243941,34.054394]}},{"type":"Feature","properties":{"City":"Chicago","State":"Il","Deposits_2010":245401,"Deposits_2011":301131,"Deposits_2012":383647,"Deposits_2013":409538,"Deposits_2014":486779,"Deposits_2015":464420,"Deposits_2016":419944,"name":"Chicago, Il","desc":"Chicago, Cook County, IL, US"},"geometry":{"type":"Point","coordinates":[-87.624421,41.875555]}},{"type":"Feature","properties":{"City":"Houston","State":"Tx","Deposits_2010":261532,"Deposits_2011":342443,"Deposits_2012":363814,"Deposits_2013":469563,"Deposits_2014":695813,"Deposits_2015":547542,"Deposits_2016":535396,"name":"Houston, Tx","desc":"Houston, Harris County, TX, US"},"geometry":{"type":"Point","coordinates":[-95.367697,29.758938]}},{"type":"Feature","properties":{"City":"Phoenix","State":"Az","Deposits_2010":150767,"Deposits_2011":154741,"Deposits_2012":173165,"Deposits_2013":193892,"Deposits_2014":204272,"Deposits_2015":232695,"Deposits_2016":258620,"name":"Phoenix, Az","desc":"Phoenix, Maricopa County, AZ, US"},"geometry":{"type":"Point","coordinates":[-112.075672,33.446768]}},{"type":"Feature","properties":{"City":"San Antonio","State":"Tx","Deposits_2010":24849,"Deposits_2011":26312,"Deposits_2012":29760,"Deposits_2013":31970,"Deposits_2014":36249,"Deposits_2015":38184,"Deposits_2016":44562,"name":"San Antonio, Tx","desc":"San Antonio, Bexar County, TX, US"},"geometry":{"type":"Point","coordinates":[-98.49514,29.4246]}},{"type":"Feature","properties":{"City":"San Diego","State":"CA","Deposits_2010":72183,"Deposits_2011":77656,"Deposits_2012":87007,"Deposits_2013":90706,"Deposits_2014":98378,"Deposits_2015":110599,"Deposits_2016":124207,"name":"San Diego, CA","desc":"San Diego, San Diego County, CA, US"},"geometry":{"type":"Point","coordinates":[-117.162771,32.717421]}},{"type":"Feature","properties":{"City":"Dallas","State":"Tx","Deposits_2010":289953,"Deposits_2011":331787,"Deposits_2012":397036,"Deposits_2013":430448,"Deposits_2014":486600,"Deposits_2015":507855,"Deposits_2016":493265,"name":"Dallas, Tx","desc":"Dallas, Dallas County, TX, US"},"geometry":{"type":"Point","coordinates":[-96.796856,32.776272]}},{"type":"Feature","properties":{"City":"San Jose","State":"CA","Deposits_2010":52346,"Deposits_2011":54531,"Deposits_2012":62621,"Deposits_2013":70036,"Deposits_2014":79742,"Deposits_2015":94430,"Deposits_2016":110869,"name":"San Jose, CA","desc":"San Josï¿½, Santa Clara County, CA, US"},"geometry":{"type":"Point","coordinates":[-121.890583,37.336191]}},{"type":"Feature","properties":{"City":"Jacksonville","State":"Fl","Deposits_2010":636,"Deposits_2011":1117,"Deposits_2012":1859,"Deposits_2013":2665,"Deposits_2014":6161,"Deposits_2015":11776,"Deposits_2016":16930,"name":"Jacksonville, Fl","desc":"Jacksonville, Duval County, FL, US"},"geometry":{"type":"Point","coordinates":[-81.655651,30.332184]}},{"type":"Feature","properties":{"City":"Indianapolis","State":"In","Deposits_2010":130085,"Deposits_2011":130626,"Deposits_2012":135450,"Deposits_2013":139184,"Deposits_2014":155991,"Deposits_2015":168236,"Deposits_2016":172073,"name":"Indianapolis, In","desc":"Indianapolis, Marion County, IN, US"},"geometry":{"type":"Point","coordinates":[-86.15835,39.768333]}},{"type":"Feature","properties":{"City":"San Francisco","State":"CA","Deposits_2010":50999,"Deposits_2011":59137,"Deposits_2012":65522,"Deposits_2013":135204,"Deposits_2014":153705,"Deposits_2015":167279,"Deposits_2016":191615,"name":"San Francisco, CA","desc":"San Francisco, San Francisco City and County, CA, US"},"geometry":{"type":"Point","coordinates":[-122.41927,37.779277]}},{"type":"Feature","properties":{"City":"Columbus","State":"Oh","Deposits_2010":210803,"Deposits_2011":251310,"Deposits_2012":261350,"Deposits_2013":278251,"Deposits_2014":306219,"Deposits_2015":308750,"Deposits_2016":354803,"name":"Columbus, Oh","desc":"Columbus, Franklin County, OH, US"},"geometry":{"type":"Point","coordinates":[-83.000706,39.96226]}},{"type":"Feature","properties":{"City":"Milwaukee","State":"Wi","Deposits_2010":354915,"Deposits_2011":472149,"Deposits_2012":506748,"Deposits_2013":539111,"Deposits_2014":524239,"Deposits_2015":607288,"Deposits_2016":560138,"name":"Milwaukee, Wi","desc":"Milwaukee, Milwaukee County, WI, US"},"geometry":{"type":"Point","coordinates":[-87.922497,43.034993]}},{"type":"Feature","properties":{"City":"Detroit","State":"Mi","Deposits_2010":396138,"Deposits_2011":583727,"Deposits_2012":692791,"Deposits_2013":773270,"Deposits_2014":986786,"Deposits_2015":1029642,"Deposits_2016":1065825,"name":"Detroit, Mi","desc":"Detroit, Wayne County, MI, US"},"geometry":{"type":"Point","coordinates":[-83.056737,42.348664]}},{"type":"Feature","properties":{"City":"El Paso","State":"Tx","Deposits_2010":100141,"Deposits_2011":106128,"Deposits_2012":115474,"Deposits_2013":123663,"Deposits_2014":121751,"Deposits_2015":124600,"Deposits_2016":1216770,"name":"El Paso, Tx","desc":"El Paso, El Paso County, TX, US"},"geometry":{"type":"Point","coordinates":[-106.487287,31.760037]}},{"type":"Feature","properties":{"City":"Louisville","State":"Ky","Deposits_2010":96737,"Deposits_2011":107785,"Deposits_2012":126483,"Deposits_2013":109933,"Deposits_2014":117657,"Deposits_2015":132039,"Deposits_2016":131378,"name":"Louisville, Ky","desc":"Louisville, Jefferson County, KY, US"},"geometry":{"type":"Point","coordinates":[-85.759407,38.254238]}},{"type":"Feature","properties":{"City":"Atlanta","State":"Ga","Deposits_2010":6476,"Deposits_2011":10765,"Deposits_2012":14640,"Deposits_2013":19177,"Deposits_2014":31048,"Deposits_2015":38459,"Deposits_2016":46303,"name":"Atlanta, Ga","desc":"Atlanta, Fulton County, GA, US"},"geometry":{"type":"Point","coordinates":[-84.390185,33.749099]}},{"type":"Feature","properties":{"City":"Denver","State":"Co","Deposits_2010":215404,"Deposits_2011":290684,"Deposits_2012":266675,"Deposits_2013":349623,"Deposits_2014":252287,"Deposits_2015":233198,"Deposits_2016":253032,"name":"Denver, Co","desc":"Denver, Denver County, CO, US"},"geometry":{"type":"Point","coordinates":[-104.984703,39.739154]}},{"type":"Feature","properties":{"City":"Miami","State":"Fl","Deposits_2010":36947,"Deposits_2011":41831,"Deposits_2012":59907,"Deposits_2013":71005,"Deposits_2014":81987,"Deposits_2015":92411,"Deposits_2016":106240,"name":"Miami, Fl","desc":"Miami, Miami-Dade County, FL, US"},"geometry":{"type":"Point","coordinates":[-80.193659,25.774266]}},{"type":"Feature","properties":{"City":"Salt Lake City","State":"Ut","Deposits_2010":95436,"Deposits_2011":330699,"Deposits_2012":150191,"Deposits_2013":181270,"Deposits_2014":155947,"Deposits_2015":635884,"Deposits_2016":646940,"name":"Salt Lake City, Ut","desc":"Salt Lake City, Utah, UT, US"},"geometry":{"type":"Point","coordinates":[-111.890431,40.767013]}},{"type":"Feature","properties":{"City":"Seattle","State":"Wa","Deposits_2010":60127,"Deposits_2011":66681,"Deposits_2012":72780,"Deposits_2013":94104,"Deposits_2014":106750,"Deposits_2015":119291,"Deposits_2016":133156,"name":"Seattle, Wa","desc":"Seattle, King County, WA, US"},"geometry":{"type":"Point","coordinates":[-122.330062,47.603832]}}]}